[
    {
        "id":21307,
        "name":"Scaramouche Restaurant",
        "address":"1 Benvenuto Place",
        "city":"Toronto",
        "state":"ON",
        "area":"Toronto / SW Ontario",
        "postal_code":"M4V 2L1",
        "country":"CA",
        "phone":"4169618011",
        "lat":43.68207,
        "lng":-79.40041,
        "price":4
    },
    {
        "id":82957,
        "name":"The Sultan's Tent",
        "address":"49 Front St E",
        "city":"Toronto",
        "state":"ON",
        "area":"Toronto / SW Ontario",
        "postal_code":"M5E 1B3",
        "country":"CA",
        "phone":"4169610601x",
        "lat":43.68207,
        "lng":-79.40041,
        "price":3
    },
    {
        "id":108505,
        "name":"Salt Wine Bar",
        "address":"225 Ossington Ave",
        "city":"Toronto",
        "state":"ON",
        "area":"Toronto / SW Ontario",
        "postal_code":"M6J 2Z8",
        "country":"CA",
        "phone":"4165337258",
        "lat":43.68207,
        "lng":-79.40041,
        "price":4
    }
]